__time,/cable_length/data,/hoist_motor_voltage/data,/sway_angle/data,/trolley_motor_voltage/data,/trolley_position/data
1717493134.986579,,,,0.000000000,
1717493134.993419,,0.000000000,,,
1717493135.000411,,,,,0.000000000
1717493135.002884,0.374413192,,,,
1717493135.002912,,,-0.280150741,,
1717493135.017440,,,,0.000000000,
1717493135.025416,,0.000000000,,,
1717493135.032447,,,,,0.000000000
1717493135.036438,0.374426425,,,,
1717493135.036470,,,-0.257407457,,
1717493135.049435,,,,0.000000000,
1717493135.057450,,0.000000000,,,
1717493135.063448,,,,,0.000000000
1717493135.069353,0.374436110,,,,
1717493135.069390,,,-0.235131159,,
1717493135.079510,,,,0.000000000,
1717493135.085528,,0.000000000,,,
1717493135.092494,,,,,0.000000000
1717493135.103665,0.374486685,,,,
1717493135.103704,,,-0.213539675,,
1717493135.108424,,,,0.000000000,
1717493135.114406,,0.000000000,,,
1717493135.120397,,,,,0.000000000
1717493135.136139,0.374485224,,,,
1717493135.136182,,,-0.185059190,,
1717493135.138425,,,,0.000000000,
1717493135.145475,,0.000000000,,,
1717493135.151414,,,,,0.000000000
1717493135.168442,,,,0.000000000,
1717493135.169324,0.374499023,,,,
1717493135.169342,,,-0.147860587,,
1717493135.174430,,0.000000000,,,
1717493135.181449,,,,,0.000000000
1717493135.197504,,,,0.000000000,
1717493135.202824,0.374505550,,,,
1717493135.202848,,,-0.119937822,,
1717493135.203362,,0.000000000,,,
1717493135.211417,,,,,0.000000000
1717493135.228524,,,,0.000000000,
1717493135.235947,0.374496937,,,,
1717493135.235976,,,-0.094003662,,
1717493135.236428,,0.000000000,,,
1717493135.242388,,,,,0.000000000
1717493135.260534,,,,0.000000000,
1717493135.268510,,0.000000000,,,
1717493135.270995,0.374504536,,,,
1717493135.271016,,,-0.068859212,,
1717493135.275383,,,,,0.000000000
1717493135.292514,,,,0.000000000,
1717493135.298172,0.374513030,,,,
1717493135.298198,,,-0.061606571,,
1717493135.298398,,0.000000000,,,
1717493135.305400,,,,,0.000000000
1717493135.322532,,,,0.000000000,
1717493135.329557,,0.000000000,,,
1717493135.331405,0.374514073,,,,
1717493135.331435,,,-0.046510115,,
1717493135.336463,,,,,0.000000000
1717493135.352510,,,,0.000000000,
1717493135.358450,,0.000000000,,,
1717493135.365490,,,,,0.000000000
1717493135.367672,0.374515444,,,,
1717493135.367691,,,-0.040516626,,
1717493135.381574,,,,0.000000000,
1717493135.387600,,0.000000000,,,
1717493135.395511,,,,,0.000000000
1717493135.402236,0.374513775,,,,
1717493135.402269,,,-0.043533612,,
1717493135.411565,,,,0.000000000,
1717493135.417488,,0.000000000,,,
1717493135.424469,,,,,0.000000000
1717493135.436065,0.374524742,,,,
1717493135.436096,,,-0.046888504,,
1717493135.441496,,,,0.000000000,
1717493135.448506,,0.000000000,,,
1717493135.455509,,,,,0.000000000
1717493135.469338,0.374552459,,,,
1717493135.469375,,,-0.058704723,,
1717493135.473492,,,,0.000000000,
1717493135.479479,,0.000000000,,,
1717493135.486640,,,,,0.000000000
1717493135.500944,0.374595881,,,,
1717493135.500978,,,-0.061776605,,
1717493135.507470,,,,0.000000000,
1717493135.532312,0.374591678,,,,
1717493135.532346,,,-0.082612425,,
1717493135.539480,,0.000000000,,,
1717493135.564244,0.374606431,,,,
1717493135.564275,,,-0.085808493,,
1717493135.565494,,,,,0.000000000
1717493135.581548,,,,0.000000000,
1717493135.591565,,0.000000000,,,
1717493135.598503,0.374608427,,,,
1717493135.598530,,,-0.078709289,,
1717493135.602495,,,,,0.000000000
1717493135.618566,,,,0.000000000,
1717493135.629567,,0.000000000,,,
1717493135.630265,0.374626189,,,,
1717493135.630293,,,-0.087220818,,
1717493135.643611,,,,,0.000000000
1717493135.653618,,,,0.000000000,
1717493135.663795,0.374615282,,,,
1717493135.663829,,,-0.096052900,,
1717493135.664490,,0.000000000,,,
1717493135.681607,,,,,0.000000000
1717493135.691641,,,,0.000000000,
1717493135.700126,0.374599010,,,,
1717493135.700177,,,-0.095803425,,
1717493135.701567,,0.000000000,,,
1717493135.719761,,,,,0.000000000
1717493135.730582,,,,0.000000000,
1717493135.731528,0.374614924,,,,
1717493135.731548,,,-0.069263317,,
1717493135.744660,,714.000000000,,,
1717493135.755574,,,,,0.000000000
1717493135.765804,0.374614596,,,,
1717493135.765846,,,-0.075255692,,
1717493135.768528,,,,0.644999981,
1717493135.782639,,680.000000000,,,
1717493135.792602,,,,,0.000000000
1717493135.798613,0.374584645,,,,
1717493135.798646,,,-0.021941114,,
1717493135.802564,,,,1.246000051,
1717493135.815555,,608.000000000,,,
1717493135.825580,,,,,0.002055556
1717493135.832876,0.374583781,,,,
1717493135.832910,,,0.040438488,,
1717493135.835520,,,,1.768000007,
1717493135.850616,,665.000000000,,,
1717493135.860627,,,,,0.004166667
1717493135.867442,0.374603808,,,,
1717493135.867479,,,0.128753006,,
1717493135.873573,,,,2.358999968,
1717493135.883551,,665.000000000,,,
1717493135.893603,,,,,0.006055556
1717493135.902821,0.374624252,,,,
1717493135.902852,,,0.234054044,,
1717493135.904579,,,,2.930000067,
1717493135.919637,,655.000000000,,,
1717493135.929577,,,,,0.008055556
1717493135.936221,0.374558359,,,,
1717493135.936252,,,0.355757684,,
1717493135.940563,,,,3.502000093,
1717493135.950550,,601.000000000,,,
1717493135.960625,,,,,0.009500000
1717493135.968539,0.374540687,,,,
1717493135.968575,,,0.485573351,,
1717493135.970628,,,,4.018000126,
1717493135.985679,,658.000000000,,,
1717493135.995628,,,,,0.011222222
1717493135.999471,0.374552459,,,,
1717493135.999501,,,0.606114507,,
1717493136.005688,,,,4.593999863,
1717493136.015650,,777.000000000,,,
1717493136.026369,,,,,0.012833334
1717493136.033519,0.374536276,,,,
1717493136.033571,,,0.742710650,,
1717493136.035573,,,,5.297999859,
1717493136.051675,,781.000000000,,,
1717493136.061696,,,,,0.015777778
1717493136.066659,0.374503225,,,,
1717493136.066686,,,0.852435410,,
1717493136.071648,,,,6.008999825,
1717493136.082695,,790.000000000,,,
1717493136.093659,,,,,0.018999999
1717493136.098639,0.374405384,,,,
1717493136.098670,,,0.959758639,,
1717493136.103583,,,,6.723999977,
1717493136.113598,,604.000000000,,,
1717493136.123614,,,,,0.022666667
1717493136.131034,0.374359369,,,,
1717493136.131067,,,1.091643333,,
1717493136.134586,,,,7.232999802,
1717493136.147644,,749.000000000,,,
1717493136.158677,,,,,0.026000001
1717493136.166703,0.374338686,,,,
1717493136.166764,,,1.222236037,,
1717493136.168624,,,,7.743000031,
1717493136.183749,,645.000000000,,,
1717493136.193665,,,,,0.029444445
1717493136.203273,0.374309242,,,,
1717493136.203792,,,1.342762589,,
1717493136.203812,,,,8.302000046,
1717493136.217650,,684.000000000,,,
1717493136.228637,,,,,0.032555554
1717493136.234756,0.374274790,,,,
1717493136.234780,,,1.420444727,,
1717493136.238607,,,,8.906999588,
1717493136.252689,,684.000000000,,,
1717493136.263696,,,,,0.035611112
1717493136.269710,0.374256611,,,,
1717493136.269746,,,1.530134320,,
1717493136.272661,,,,8.885999680,
1717493136.287780,,700.000000000,,,
1717493136.297746,,,,,0.038611110
1717493136.303644,0.374243855,,,,
1717493136.303672,,,1.571265936,,
1717493136.307640,,,,8.909999847,
1717493136.320661,,715.000000000,,,
1717493136.332700,,,,,0.041499998
1717493136.335448,0.374224663,,,,
1717493136.335467,,,1.568873048,,
1717493136.347670,,,,8.937999725,
1717493136.357740,,636.000000000,,,
1717493136.367728,,,,,0.044666667
1717493136.371118,0.374130249,,,,
1717493136.371155,,,1.522825718,,
1717493136.383691,,,,8.897999763,
1717493136.392676,,746.000000000,,,
1717493136.402693,,,,,0.047833335
1717493136.404550,0.374063522,,,,
1717493136.404571,,,1.427029371,,
1717493136.418726,,,,9.000000000,
1717493136.428669,,658.000000000,,,
1717493136.435659,0.374085337,,,,
1717493136.435698,,,1.279125571,,
1717493136.438617,,,,,0.051444445
1717493136.453748,,,,9.001999855,
1717493136.463799,,732.000000000,,,
1717493136.470970,0.374009579,,,,
1717493136.471008,,,1.131526589,,
1717493136.473678,,,,,0.055222221
1717493136.488821,,,,9.144000053,
1717493136.498758,,679.000000000,,,
1717493136.499279,0.373951674,,,,
1717493136.499310,,,0.967832386,,
1717493136.513744,,,,,0.059722222
1717493136.523732,,,,9.168000221,
1717493136.533303,0.373929828,,,,
1717493136.533337,,,0.771039367,,
1717493136.533660,,621.000000000,,,
1717493136.548711,,,,,0.063555554
1717493136.558742,,,,8.996000290,
1717493136.565141,0.373924106,,,,
1717493136.565170,,,0.584093511,,
1717493136.567677,,695.000000000,,,
1717493136.581720,,,,,0.067166664
1717493136.592778,,,,8.906000137,
1717493136.600007,0.373930901,,,,
1717493136.600041,,,0.398578435,,
1717493136.602695,,613.000000000,,,
1717493136.616744,,,,,0.071055554
1717493136.626711,,,,8.711000443,
1717493136.636699,,751.000000000,,,
1717493136.638184,0.373923570,,,,
1717493136.638268,,,0.188774168,,
1717493136.650753,,,,,0.075111113
1717493136.659738,,,,8.880999565,
1717493136.669338,0.373887330,,,,
1717493136.669358,,,-0.019561876,,
1717493136.671696,,621.000000000,,,
1717493136.685896,,,,,0.079833336
1717493136.695751,,,,8.904999733,
1717493136.699542,0.373877704,,,,
1717493136.699564,,,-0.217527866,,
1717493136.705707,,743.000000000,,,
1717493136.716737,,,,,0.083666667
1717493136.726693,,,,9.013999939,
1717493136.732277,0.373875499,,,,
1717493136.732295,,,-0.396812350,,
1717493136.736681,,720.000000000,,,
1717493136.749756,,,,,0.088500001
1717493136.759740,,,,9.050999641,
1717493136.765397,0.373842031,,,,
1717493136.765433,,,-0.557720482,,
1717493136.769658,,720.000000000,,,
1717493136.784836,,,,,0.093888886
1717493136.794708,,,,8.984999657,
1717493136.799205,0.373801172,,,,
1717493136.799224,,,-0.674520016,,
1717493136.804655,,650.000000000,,,
1717493136.814693,,,,,0.098444447
1717493136.823714,,,,8.920000076,
1717493136.830643,0.373763770,,,,
1717493136.830687,,,-0.747569203,,
1717493136.833709,,655.000000000,,,
1717493136.848775,,,,,0.102888890
1717493136.858746,,,,8.935000420,
1717493136.864658,0.373776078,,,,
1717493136.864680,,,-0.783798814,,
1717493136.869743,,687.000000000,,,
1717493136.880744,,,,,0.107000001
1717493136.891791,,,,8.987999916,
1717493136.898646,0.373759717,,,,
1717493136.898685,,,-0.787130296,,
1717493136.900817,,693.000000000,,,
1717493136.916805,,,,,0.111500002
1717493136.926725,,,,8.923999786,
1717493136.933384,0.373729140,,,,
1717493136.933411,,,-0.722189665,,
1717493136.935667,,757.000000000,,,
1717493136.950755,,,,,0.116277777
1717493136.959706,,,,9.034999847,
1717493136.969784,,636.000000000,,,
1717493136.969829,0.373763919,,,,
1717493136.969842,,,-0.648723722,,
1717493136.983872,,,,,0.120944448
1717493136.993824,,,,8.923999786,
1717493136.998424,0.373736560,,,,
1717493136.998446,,,-0.541843176,,
1717493137.003736,,759.000000000,,,
1717493137.013804,,,,,0.125055552
1717493137.023788,,,,8.871000290,
1717493137.031149,0.373700619,,,,
1717493137.031172,,,-0.409962356,,
1717493137.033728,,700.000000000,,,
1717493137.048773,,,,,0.130277783
1717493137.059745,,,,8.885999680,
1717493137.067527,0.373703867,,,,
1717493137.067549,,,-0.261522114,,
1717493137.072776,,683.000000000,,,
1717493137.081737,,,,,0.136055559
1717493137.092811,,,,8.859999657,
1717493137.097165,0.373714387,,,,
1717493137.097186,,,-0.114011429,,
1717493137.102754,,683.000000000,,,
1717493137.112763,,,,,0.141055554
1717493137.121781,,,,8.939000130,
1717493137.131775,,683.000000000,,,
1717493137.134146,0.373691887,,,,
1717493137.134169,,,0.049459483,,
1717493137.145837,,,,,0.146500006
1717493137.156828,,,,8.812000275,
1717493137.166735,,642.000000000,,,
1717493137.169494,0.373685628,,,,
1717493137.169520,,,0.211949751,,
1717493137.180757,,,,,0.151833341
1717493137.189881,,,,8.829999924,
1717493137.199791,,764.000000000,,,
1717493137.200574,0.373690397,,,,
1717493137.200611,,,0.373303860,,
1717493137.213749,,,,,0.157277778
1717493137.223779,,,,8.848999977,
1717493137.234776,,723.000000000,,,
1717493137.235406,0.373657644,,,,
1717493137.235431,,,0.533409715,,
1717493137.248790,,,,,0.163444445
1717493137.259839,,,,8.845999718,
1717493137.269471,0.373655140,,,,
1717493137.269525,,,0.666928172,,
1717493137.271823,,689.000000000,,,
1717493137.286923,,,,,0.169888884
1717493137.296828,,,,8.887999535,
1717493137.300321,0.373685539,,,,
1717493137.300360,,,0.799670994,,
1717493137.310807,,665.000000000,,,
1717493137.320818,,,,,0.175833330
1717493137.330785,,,,8.899000168,
1717493137.340833,,782.000000000,,,
1717493137.341421,0.373681605,,,,
1717493137.341444,,,0.905712605,,
1717493137.355841,,,,,0.181666672
1717493137.365831,,,,9.039999962,
1717493137.368291,0.373676151,,,,
1717493137.368321,,,0.983662486,,
1717493137.379824,,625.000000000,,,
1717493137.389990,,,,,0.187555552
1717493137.400970,,,,8.968000412,
1717493137.401172,0.373683423,,,,
1717493137.401210,,,1.069646478,,
1717493137.414818,,616.000000000,,,
1717493137.424859,,,,,0.192722216
1717493137.430681,0.373718560,,,,
1717493137.430702,,,1.105592012,,
1717493137.434846,,,,8.878000259,
1717493137.447838,,761.000000000,,,
1717493137.457856,,,,,0.197333336
1717493137.468538,0.373734832,,,,
1717493137.468566,,,1.098551750,,
1717493137.469795,,,,8.876000404,
1717493137.485930,,712.000000000,,,
1717493137.496903,,,,,0.203222215
1717493137.500312,0.373733521,,,,
1717493137.500335,,,1.057392359,,
1717493137.511942,,,,8.963000298,
1717493137.521953,,712.000000000,,,
1717493137.531857,,,,,0.209388882
1717493137.537159,0.373749197,,,,
1717493137.537200,,,0.982298851,,
1717493137.541793,,,,9.048999786,
1717493137.553900,,785.000000000,,,
1717493137.564877,,,,,0.215555549
1717493137.568612,0.373743504,,,,
1717493137.568637,,,0.890398860,,
1717493137.574833,,,,9.206999779,
1717493137.584966,,705.000000000,,,
1717493137.594931,,,,,0.222388893
1717493137.601896,0.373767853,,,,
1717493137.601918,,,0.781944513,,
1717493137.604852,,,,9.227000237,
1717493137.618915,,663.000000000,,,
1717493137.628876,,,,,0.229944438
1717493137.636375,0.373803347,,,,
1717493137.636397,,,0.674022079,,
1717493137.638850,,,,9.194000244,
1717493137.653966,,601.000000000,,,
1717493137.663915,,,,,0.237499997
1717493137.668393,0.373834699,,,,
1717493137.668420,,,0.575058699,,
1717493137.673929,,,,9.145000458,
1717493137.683953,,601.000000000,,,
1717493137.693954,,,,,0.243333340
1717493137.702034,0.373850286,,,,
1717493137.702063,,,0.468021035,,
1717493137.703902,,,,9.095000267,
1717493137.718960,,676.000000000,,,
1717493137.728913,,,,,0.250111103
1717493137.738945,,,,8.998999596,
1717493137.740458,0.373881102,,,,
1717493137.740479,,,0.352934062,,
1717493137.753003,,624.000000000,,,
1717493137.763017,,,,,0.256333321
1717493137.769191,0.373914301,,,,
1717493137.769235,,,0.229857251,,
1717493137.772933,,,,8.887000084,
1717493137.786049,,741.000000000,,,
1717493137.795985,,,,,0.262444437
1717493137.802757,0.373941720,,,,
1717493137.802803,,,0.090216741,,
1717493137.805904,,,,8.946000099,
1717493137.819999,,798.000000000,,,
1717493137.829959,,,,,0.269111097
1717493137.833220,0.373966306,,,,
1717493137.833259,,,-0.057368502,,
1717493137.845992,,,,9.090000153,
1717493137.855975,,691.000000000,,,
1717493137.865960,,,,,0.277055562
1717493137.868603,0.373984069,,,,
1717493137.868658,,,-0.187174931,,
1717493137.881953,,,,9.097000122,
1717493137.892030,,668.000000000,,,
1717493137.902046,,,,,0.285055548
1717493137.902303,0.374020875,,,,
1717493137.902350,,,-0.307716101,,
1717493137.918061,,,,9.281000137,
1717493137.926966,,740.000000000,,,
1717493137.935561,0.374017060,,,,
1717493137.935588,,,-0.419216901,,
1717493137.936942,,,,,0.293111116
1717493137.952236,,,,9.416000366,
1717493137.961999,,695.000000000,,,
1717493137.969979,0.374002159,,,,
1717493137.970018,,,-0.487545222,,
1717493137.971997,,,,,0.301944435
1717493137.987070,,,,9.338999748,
1717493137.997019,,713.000000000,,,
1717493138.002276,0.374006152,,,,
1717493138.002333,,,-0.512733459,,
1717493138.006953,,,,,0.310333341
1717493138.017042,,,,9.326000214,
1717493138.027059,,772.000000000,,,
1717493138.030940,0.374066889,,,,
1717493138.030967,,,-0.510730207,,
1717493138.036996,,,,,0.317666680
1717493138.046980,,,,9.381999969,
1717493138.057034,,772.000000000,,,
1717493138.064075,0.374047071,,,,
1717493138.064123,,,-0.450439572,,
1717493138.066943,,,,,0.325333327
1717493138.081005,,,,9.277000427,
1717493138.091067,,691.000000000,,,
1717493138.099180,0.374046594,,,,
1717493138.099213,,,-0.364532173,,
1717493138.100999,,,,,0.334111124
1717493138.116044,,,,9.263999939,
1717493138.126047,,766.000000000,,,
1717493138.135101,0.374031872,,,,
1717493138.135149,,,-0.270348907,,
1717493138.136001,,,,,0.343222231
1717493138.152083,,,,9.380000114,
1717493138.162074,,609.000000000,,,
1717493138.168234,0.373997927,,,,
1717493138.168272,,,-0.167696357,,
1717493138.172030,,,,,0.352333337
1717493138.182012,,,,9.388999939,
1717493138.192099,,738.000000000,,,
1717493138.200197,0.373964608,,,,
1717493138.200237,,,-0.048209384,,
1717493138.202022,,,,,0.359777778
1717493138.217066,,,,9.538000107,
1717493138.227042,,756.000000000,,,
1717493138.235766,0.373936236,,,,
1717493138.235797,,,0.079646982,,
1717493138.237024,,,,,0.368999988
1717493138.253089,,,,9.623999596,
1717493138.263128,,749.000000000,,,
1717493138.268656,0.373895228,,,,
1717493138.268707,,,0.232825652,,
1717493138.273047,,,,,0.379166663
1717493138.286146,,,,9.758000374,
1717493138.296057,,618.000000000,,,
1717493138.301953,0.373854250,,,,
1717493138.301994,,,0.385402411,,
1717493138.305991,,,,,0.388222218
1717493138.319101,,,,9.618000031,
1717493138.329062,,640.000000000,,,
1717493138.330276,0.373839140,,,,
1717493138.330293,,,0.563393712,,
1717493138.344076,,,,,0.397388875
1717493138.354110,,,,9.449000359,
1717493138.364058,,640.000000000,,,
1717493138.366139,0.373867512,,,,
1717493138.366183,,,0.732434392,,
1717493138.379093,,,,,0.405166656
1717493138.389107,,,,9.281000137,
1717493138.399122,,622.000000000,,,
1717493138.403749,0.373792619,,,,
1717493138.403782,,,0.874755204,,
1717493138.409038,,,,,0.411444455
1717493138.419095,,,,9.095000267,
1717493138.429063,,682.000000000,,,
1717493138.431540,0.373743147,,,,
1717493138.431567,,,0.990964472,,
1717493138.443076,,,,,0.418111116
1717493138.453156,,,,8.968000412,
1717493138.463078,,682.000000000,,,
1717493138.465684,0.373689175,,,,
1717493138.465709,,,1.080885530,,
1717493138.477108,,,,,0.424499989
1717493138.487165,,,,8.892000198,
1717493138.497136,,694.000000000,,,
1717493138.500813,0.373699725,,,,
1717493138.500852,,,1.077779055,,
1717493138.507033,,,,,0.430388898
1717493138.516139,,,,8.798999786,
1717493138.526114,,700.000000000,,,
1717493138.532581,0.373623639,,,,
1717493138.532620,,,1.037736177,,
1717493138.537091,,,,,0.436277777
1717493138.547106,,,,8.720999718,
1717493138.557151,,684.000000000,,,
1717493138.565775,0.373658121,,,,
1717493138.565818,,,0.905400872,,
1717493138.567081,,,,,0.442944437
1717493138.582135,,,,8.715000153,
1717493138.591157,,782.000000000,,,
1717493138.600368,0.373626530,,,,
1717493138.600410,,,0.747477233,,
1717493138.601073,,,,,0.450777769
1717493138.617133,,,,8.817000389,
1717493138.627137,,700.000000000,,,
1717493138.630878,0.373602778,,,,
1717493138.630916,,,0.547304094,,
1717493138.637072,,,,,0.460166663
1717493138.647085,,,,8.741999626,
1717493138.657165,,703.000000000,,,
1717493138.666605,0.373629779,,,,
1717493138.666634,,,0.322127163,,
1717493138.667086,,,,,0.468111098
1717493138.683144,,,,8.840000153,
1717493138.693166,,618.000000000,,,
1717493138.700090,0.373698652,,,,
1717493138.700129,,,0.097859994,,
1717493138.703095,,,,,0.477611125
1717493138.717139,,,,8.708000183,
1717493138.727195,,709.000000000,,,
1717493138.731643,0.373746365,,,,
1717493138.731672,,,-0.134416074,,
1717493138.738112,,,,,0.486388892
1717493138.748151,,,,8.652000427,
1717493138.758160,,709.000000000,,,
1717493138.767325,0.373787045,,,,
1717493138.767362,,,-0.366066366,,
1717493138.768089,,,,,0.494722217
1717493138.784130,,,,8.581999779,
1717493138.795182,,684.000000000,,,
1717493138.797297,0.373815089,,,,
1717493138.797314,,,-0.579837561,,
1717493138.809156,,,,,0.506222248
1717493138.819206,,,,8.760000229,
1717493138.829153,,786.000000000,,,
1717493138.831225,0.373827428,,,,
1717493138.831254,,,-0.801697850,,
1717493138.843158,,,,,0.516499996
1717493138.853213,,,,8.913000107,
1717493138.863207,,665.000000000,,,
1717493138.866125,0.373821110,,,,
1717493138.866144,,,-0.988829076,,
1717493138.878159,,,,,0.527111113
1717493138.887214,,,,8.930999756,
1717493138.897156,,679.000000000,,,
1717493138.900828,0.373878986,,,,
1717493138.900852,,,-1.123829246,,
1717493138.907156,,,,,0.536333323
1717493138.917167,,,,8.987000465,
1717493138.927198,,721.000000000,,,
1717493138.932651,0.373938531,,,,
1717493138.932681,,,-1.214224339,,
1717493138.937148,,,,,0.545611084
1717493138.946133,,,,9.043999672,
1717493138.956200,,779.000000000,,,
1717493138.966205,,,,,0.554277778
1717493138.967582,0.374017298,,,,
1717493138.967623,,,-1.220302105,,
1717493138.981162,,,,9.204000473,
1717493138.991217,,667.000000000,,,
1717493139.001203,,,,,0.565277755
1717493139.001936,0.374023706,,,,
1717493139.001978,,,-1.125199437,,
1717493139.018159,,,,9.364999771,
1717493139.027280,,790.000000000,,,
1717493139.031855,0.374110520,,,,
1717493139.031889,,,-0.969266653,,
1717493139.037185,,,,,0.577055573
1717493139.047176,,,,9.454000473,
1717493139.057231,,790.000000000,,,
1717493139.066453,0.374067038,,,,
1717493139.066489,,,-0.745952189,,
1717493139.067101,,,,,0.587166667
1717493139.083237,,,,9.560000420,
1717493139.093256,,723.000000000,,,
1717493139.099540,0.374085218,,,,
1717493139.099569,,,-0.463944405,,
1717493139.103150,,,,,0.599388897
1717493139.116118,,,,9.557000160,
1717493139.126196,,643.000000000,,,
1717493139.135242,0.374131888,,,,
1717493139.135276,,,-0.140258864,,
1717493139.136217,,,,,0.610000014
1717493139.152248,,,,9.517000198,
1717493139.162222,,666.000000000,,,
1717493139.167961,0.374140531,,,,
1717493139.167992,,,0.207573295,,
1717493139.172230,,,,,0.620944440
1717493139.185257,,,,9.473999977,
1717493139.196292,,744.000000000,,,
1717493139.201324,0.374096572,,,,
1717493139.201356,,,0.553948224,,
1717493139.206224,,,,,0.630944431
1717493139.215251,,,,9.612999916,
1717493139.225226,,730.000000000,,,
1717493139.233703,0.374088883,,,,
1717493139.233744,,,0.899300218,,
1717493139.235187,,,,,0.639500022
1717493139.251229,,,,9.630000114,
1717493139.261299,,732.000000000,,,
1717493139.267586,0.374080122,,,,
1717493139.267617,,,1.226322889,,
1717493139.273193,,,,,0.650944471
1717493139.282234,,,,9.678000450,
1717493139.292272,,794.000000000,,,
1717493139.300875,0.374095649,,,,
1717493139.300908,,,1.509618521,,
1717493139.302213,,,,,0.660111129
1717493139.318254,,,,9.685000420,
1717493139.328256,,756.000000000,,,
1717493139.333170,0.374115080,,,,
1717493139.333212,,,1.766312480,,
1717493139.338316,,,,,0.672222197
1717493139.348275,,,,9.649000168,
1717493139.358305,,608.000000000,,,
1717493139.366459,0.374106079,,,,
1717493139.366505,,,1.996429443,,
1717493139.368254,,,,,0.682444453
1717493139.383378,,,,9.585000038,
1717493139.393300,,780.000000000,,,
1717493139.401199,0.374107301,,,,
1717493139.401238,,,2.174839973,,
1717493139.403188,,,,,0.693833351
1717493139.418264,,,,9.501000404,
1717493139.428256,,780.000000000,,,
1717493139.433235,0.374116242,,,,
1717493139.433276,,,2.282861233,,
1717493139.438287,,,,,0.705277801
1717493139.448238,,,,9.416999817,
1717493139.458260,,699.000000000,,,
1717493139.466245,0.374122590,,,,
1717493139.466275,,,2.315227270,,
1717493139.468205,,,,,0.715222239
1717493139.483302,,,,8.727999687,
1717493139.493373,,660.000000000,,,
1717493139.500226,0.374134332,,,,
1717493139.500276,,,2.279015064,,
1717493139.503190,,,,,0.726611137
1717493139.517271,,,,8.598999977,
1717493139.527293,,652.000000000,,,
1717493139.533632,0.374089658,,,,
1717493139.533664,,,2.199836254,,
1717493139.537301,,,,,0.737555563
1717493139.550424,,,,7.897999763,
1717493139.560277,,636.000000000,,,
1717493139.567559,0.374098629,,,,
1717493139.567591,,,2.009703875,,
1717493139.570279,,,,,0.747722208
1717493139.585322,,,,7.729000092,
1717493139.595483,,606.000000000,,,
1717493139.600318,0.374109834,,,,
1717493139.600359,,,1.735240817,,
1717493139.605379,,,,,0.757777750
1717493139.614259,,,,7.531000137,
1717493139.624316,,617.000000000,,,
1717493139.632656,0.374099225,,,,
1717493139.632687,,,1.401876926,,
1717493139.634260,,,,,0.765611112
1717493139.649375,,,,7.480000019,
1717493139.659370,,784.000000000,,,
1717493139.667453,0.374091327,,,,
1717493139.667485,,,1.010065317,,
1717493139.671298,,,,,0.775555551
1717493139.684336,,,,7.611999989,
1717493139.694382,,725.000000000,,,
1717493139.699650,0.374108076,,,,
1717493139.699686,,,0.568542361,,
1717493139.704334,,,,,0.785555542
1717493139.714311,,,,7.585000038,
1717493139.724301,,725.000000000,,,
1717493139.732696,0.374111682,,,,
1717493139.732730,,,0.111505896,,
1717493139.734240,,,,,0.795277774
1717493139.749343,,,,7.501999855,
1717493139.759409,,656.000000000,,,
1717493139.767228,0.374167144,,,,
1717493139.767262,,,-0.343404949,,
1717493139.769274,,,,,0.806666672
1717493139.784380,,,,6.861999989,
1717493139.794373,,0.000000000,,,
1717493139.800179,0.374205977,,,,
1717493139.800209,,,-0.787998378,,
1717493139.804397,,,,,0.816888869
1717493139.817354,,,,6.157000065,
1717493139.827305,,0.000000000,,,
1717493139.833242,0.374237478,,,,
1717493139.833275,,,-1.222254276,,
1717493139.838319,,,,,0.824333310
1717493139.848432,,,,5.493999958,
1717493139.858436,,0.000000000,,,
1717493139.867893,0.374270052,,,,
1717493139.867933,,,-1.688648343,,
1717493139.868301,,,,,0.829444468
1717493139.884376,,,,4.993999958,
1717493139.895407,,0.000000000,,,
1717493139.899740,0.374311566,,,,
1717493139.899770,,,-2.169839859,,
1717493139.905424,,,,,0.833222210
1717493139.915392,,,,4.493000031,
1717493139.925357,,0.000000000,,,
1717493139.933057,0.374374032,,,,
1717493139.933089,,,-2.639806747,,
1717493139.935305,,,,,0.834888875
1717493139.951370,,,,3.992000103,
1717493139.960463,,0.000000000,,,
1717493139.967203,0.374419063,,,,
1717493139.967260,,,-3.158317327,,
1717493139.970318,,,,,0.834999979
1717493139.987418,,,,3.992000103,
1717493139.997471,,0.000000000,,,
1717493140.000562,0.374458730,,,,
1717493140.000588,,,-3.673676491,,
1717493140.011422,,,,,0.834666669
1717493140.022459,,,,3.434000015,
1717493140.032346,,0.000000000,,,
1717493140.033132,0.374521255,,,,
1717493140.033156,,,-4.185311794,,
1717493140.047432,,,,,0.834666669
1717493140.059432,,,,3.434000015,
1717493140.067078,0.374632150,,,,
1717493140.067151,,,-4.675327301,,
1717493140.071441,,0.000000000,,,
1717493140.084435,,,,,0.834666669
1717493140.095442,,,,2.901000023,
1717493140.100184,0.374704242,,,,
1717493140.100229,,,-5.111369133,,
1717493140.107413,,0.000000000,,,
1717493140.118405,,,,,0.834666669
1717493140.129421,,,,2.398999929,
1717493140.133421,0.374708533,,,,
1717493140.133452,,,-5.468100548,,
1717493140.141371,,0.000000000,,,
1717493140.152398,,,,,0.834666669
1717493140.162443,,,,1.881999969,
1717493140.166601,0.374731213,,,,
1717493140.166642,,,-5.754166603,,
1717493140.172467,,0.000000000,,,
1717493140.183414,,,,,0.834666669
1717493140.195483,,,,1.184000015,
1717493140.200242,0.374763817,,,,
1717493140.200282,,,-5.961706638,,
1717493140.206415,,0.000000000,,,
1717493140.218404,,,,,0.834666669
1717493140.228461,,,,0.554000020,
1717493140.234053,0.374782503,,,,
1717493140.234087,,,-6.074240685,,
1717493140.239406,,0.000000000,,,
1717493140.251410,,,,,0.834666669
1717493140.262439,,,,0.000000000,
1717493140.266790,0.374718904,,,,
1717493140.266827,,,-6.100811958,,
1717493140.280516,,0.000000000,,,
1717493140.290507,,,,,0.834666669
1717493140.300467,,,,0.000000000,
1717493140.301582,0.374621421,,,,
1717493140.301606,,,-6.016002655,,
1717493140.314487,,0.000000000,,,
1717493140.326449,,,,,0.834666669
1717493140.333258,0.374564826,,,,
1717493140.333318,,,-5.828459740,,
1717493140.336385,,,,0.000000000,
1717493140.352422,,0.000000000,,,
1717493140.367474,,,,,0.834611118
1717493140.367569,0.374527931,,,,
1717493140.367671,,,-5.521751404,,
1717493140.384472,,,,0.000000000,
1717493140.395464,,0.000000000,,,
1717493140.402734,0.374469012,,,,
1717493140.402787,,,-5.079957008,,
1717493140.405439,,,,,0.834555566
1717493140.420484,,,,0.000000000,
1717493140.430460,,0.000000000,,,
1717493140.435185,0.374365181,,,,
1717493140.435207,,,-4.504384995,,
1717493140.440450,,,,,0.834444463
1717493140.450420,,,,0.000000000,
1717493140.462423,,0.000000000,,,
1717493140.468098,0.374270201,,,,
1717493140.468154,,,-3.804229021,,
1717493140.475481,,,,,0.834388912
1717493140.485417,,,,0.000000000,
1717493140.494487,,0.000000000,,,
1717493140.501201,0.374200821,,,,
1717493140.501259,,,-2.971907616,,
1717493140.504418,,,,,0.834333360
1717493140.521466,,,,0.000000000,
1717493140.532455,,0.000000000,,,
1717493140.536315,0.374111027,,,,
1717493140.536341,,,-2.051339149,,
1717493140.542469,,,,,0.834277749
1717493140.552489,,,,0.000000000,
1717493140.562456,,0.000000000,,,
1717493140.568332,0.373984784,,,,
1717493140.568365,,,-1.035328746,,
1717493140.573530,,,,,0.834277749
1717493140.585486,,,,0.000000000,
1717493140.595535,,0.000000000,,,
1717493140.602874,0.373856455,,,,
1717493140.602909,,,0.000183200,,
1717493140.606531,,,,,0.834222198
1717493140.620500,,,,0.000000000,
1717493140.631491,,0.000000000,,,
1717493140.634488,0.373782843,,,,
1717493140.634511,,,1.037927747,,
1717493140.645485,,,,,0.834222198
1717493140.656529,,,,0.000000000,
1717493140.667655,0.373709351,,,,
1717493140.667698,,,2.069612026,,
1717493140.668459,,0.000000000,,,
1717493140.685541,,,,,0.834222198
1717493140.696603,,,,0.000000000,
1717493140.702451,0.373619586,,,,
1717493140.702496,,,3.053137064,,
1717493140.706474,,0.000000000,,,
1717493140.720490,,,,,0.834166646
1717493140.730421,,,,0.000000000,
1717493140.732721,0.373530656,,,,
1717493140.732782,,,3.929538488,,
1717493140.744492,,0.000000000,,,
1717493140.759562,,,,,0.834166646
1717493140.763243,0.373474270,,,,
1717493140.763284,,,4.673294544,,
1717493140.771445,,,,0.000000000,
1717493140.782500,,0.000000000,,,
1717493140.792595,,,,,0.834166646
1717493140.797705,0.373447150,,,,
1717493140.797746,,,5.268947124,,
1717493140.802447,,,,0.000000000,
1717493140.812435,,0.000000000,,,
1717493140.822586,,,,,0.834166646
1717493140.833042,0.373401940,,,,
1717493140.833074,,,5.707828045,,
1717493140.833477,,,,0.000000000,
1717493140.850563,,0.000000000,,,
1717493140.860555,,,,,0.834166646
1717493140.867588,0.373364985,,,,
1717493140.867620,,,5.998853683,,
1717493140.876516,,,,0.000000000,
1717493140.886563,,0.000000000,,,
1717493140.896685,,,,,0.833999991
1717493140.901640,0.373351842,,,,
1717493140.901678,,,6.074551582,,
1717493140.908502,,,,0.000000000,
1717493140.917555,,0.000000000,,,
1717493140.928570,,,,,0.833999991
1717493140.933214,0.373344421,,,,
1717493140.933248,,,5.970930099,,
1717493140.939547,,,,0.000000000,
1717493140.949558,,0.000000000,,,
1717493140.959578,,,,,0.833999991
1717493140.968504,0.373336613,,,,
1717493140.968522,,,5.731163979,,
1717493140.969498,,,,0.000000000,
1717493140.985640,,0.000000000,,,
1717493140.996663,,,,,0.833999991
1717493141.002197,0.373361707,,,,
1717493141.002223,,,5.271035194,,
1717493141.006576,,,,0.000000000,
1717493141.020587,,0.000000000,,,
1717493141.031601,,,,,0.833999991
1717493141.034256,0.373368591,,,,
1717493141.034275,,,4.660043716,,
1717493141.047548,,,,0.000000000,
1717493141.058634,,0.000000000,,,
1717493141.068698,0.373379707,,,,
1717493141.068749,,,3.942171812,,
1717493141.069542,,,,,0.833999991
1717493141.087605,,,,0.000000000,
1717493141.097734,,0.000000000,,,
1717493141.102343,0.373470396,,,,
1717493141.102383,,,3.092801809,,
1717493141.108554,,,,,0.833999991
1717493141.117601,,,,0.000000000,
1717493141.127601,,0.000000000,,,
1717493141.133688,0.373567671,,,,
1717493141.133739,,,2.155729294,,
1717493141.137549,,,,,0.833999991
1717493141.153670,,,,0.000000000,
1717493141.163614,,0.000000000,,,
1717493141.167066,0.373633415,,,,
1717493141.167095,,,1.139296055,,
1717493141.179580,,,,,0.833999991
1717493141.189664,,,,0.000000000,
1717493141.199628,,0.000000000,,,
1717493141.200777,0.373698860,,,,
1717493141.200803,,,0.111471675,,
1717493141.215667,,,,,0.833999991
1717493141.225633,,,,0.000000000,
1717493141.234623,0.373761386,,,,
1717493141.234668,,,-0.893864572,,
1717493141.237605,,0.000000000,,,
1717493141.254635,,,,,0.833999991
1717493141.265649,,,,0.000000000,
1717493141.267905,0.373846352,,,,
1717493141.267928,,,-1.833851576,,
1717493141.280583,,0.000000000,,,
1717493141.290653,,,,,0.833999991
1717493141.300619,,,,0.000000000,
1717493141.301541,0.373928338,,,,
1717493141.301565,,,-2.718588591,,
1717493141.314594,,0.000000000,,,
1717493141.325716,,,,,0.833999991
1717493141.336312,0.373992413,,,,
1717493141.336341,,,-3.505624056,,
1717493141.336557,,,,0.000000000,
1717493141.350654,,0.000000000,,,
1717493141.362617,,,,,0.833999991
1717493141.367989,0.374067098,,,,
1717493141.368026,,,-4.194755077,,
1717493141.373611,,,,0.000000000,
1717493141.387669,,0.000000000,,,
1717493141.398662,,,,,0.833999991
1717493141.402899,0.374105990,,,,
1717493141.402916,,,-4.718294621,,
1717493141.409601,,,,0.000000000,
1717493141.420603,,0.000000000,,,
1717493141.431622,,,,,0.833999991
1717493141.434376,0.374138027,,,,
1717493141.434406,,,-5.068776131,,
1717493141.447601,,,,0.000000000,
1717493141.458639,,0.000000000,,,
1717493141.468798,0.374167740,,,,
1717493141.468838,,,-5.272254944,,
1717493141.470639,,,,,0.833999991
1717493141.485670,,,,0.000000000,
1717493141.496671,,0.000000000,,,
1717493141.501759,0.374141961,,,,
1717493141.501779,,,-5.278279781,,
1717493141.506608,,,,,0.833999991
1717493141.516687,,,,0.000000000,
1717493141.526691,,0.000000000,,,
1717493141.534527,0.374124736,,,,
1717493141.534565,,,-5.121854305,,
1717493141.538615,,,,,0.833999991
1717493141.553692,,,,0.000000000,
1717493141.563734,,0.000000000,,,
1717493141.568071,0.374125600,,,,
1717493141.568100,,,-4.786840439,,
1717493141.576684,,,,,0.833999991
1717493141.586691,,,,0.000000000,
1717493141.597697,,0.000000000,,,
1717493141.601496,0.374067843,,,,
1717493141.601520,,,-4.266226292,,
1717493141.608761,,,,,0.833999991
1717493141.619713,,,,0.000000000,
1717493141.630664,,0.000000000,,,
1717493141.635066,0.373968720,,,,
1717493141.635115,,,-3.630023241,,
1717493141.640634,,,,,0.833999991
1717493141.652700,,,,0.000000000,
1717493141.663640,,0.000000000,,,
1717493141.667614,0.373935759,,,,
1717493141.667646,,,-2.844300508,,
1717493141.673654,,,,,0.833999991
1717493141.685682,,,,0.000000000,
1717493141.695674,,0.000000000,,,
1717493141.701435,0.373874307,,,,
1717493141.701456,,,-1.986719728,,
1717493141.707667,,,,,0.833999991
1717493141.718698,,,,0.000000000,
1717493141.728735,,0.000000000,,,
1717493141.734782,0.373830318,,,,
1717493141.734830,,,-1.074065924,,
1717493141.739632,,,,,0.833999991
1717493141.752727,,,,0.000000000,
1717493141.763740,,0.000000000,,,
1717493141.766393,0.373788059,,,,
1717493141.766448,,,-0.133557141,,
1717493141.778697,,,,,0.833999991
1717493141.788729,,,,0.000000000,
1717493141.798748,,0.000000000,,,
1717493141.799313,0.373723567,,,,
1717493141.799412,,,0.835484147,,
1717493141.813731,,,,,0.833999991
1717493141.824741,,,,0.000000000,
1717493141.832077,0.373661011,,,,
1717493141.832108,,,1.774572492,,
1717493141.833670,,0.000000000,,,
1717493141.849743,,,,,0.833999991
1717493141.860739,,,,0.000000000,
1717493141.867332,0.373535216,,,,
1717493141.867379,,,2.666405439,,
1717493141.871711,,0.000000000,,,
1717493141.885759,,,,,0.833944440
1717493141.895817,,,,0.000000000,
1717493141.901014,0.373479605,,,,
1717493141.901051,,,3.486039162,,
1717493141.905687,,0.000000000,,,
1717493141.917741,,,,,0.833944440
1717493141.927737,,,,0.000000000,
1717493141.932559,0.373423547,,,,
1717493141.932580,,,4.191470623,,
1717493141.937706,,0.000000000,,,
1717493141.947700,,,,,0.833944440
1717493141.959761,,,,0.000000000,
1717493141.965982,0.373396069,,,,
1717493141.966017,,,4.784006119,,
1717493141.969704,,0.000000000,,,
1717493141.983775,,,,,0.833944440
1717493141.995835,,,,0.000000000,
1717493142.000027,0.373394102,,,,
1717493142.000067,,,5.237781525,,
1717493142.005717,,0.000000000,,,
1717493142.015705,,,,,0.831555545
1717493142.027755,,,,0.000000000,
1717493142.032570,0.373412699,,,,
1717493142.032598,,,5.562260151,,
1717493142.037715,,0.000000000,,,
1717493142.047724,,,,,0.830055535
1717493142.057798,,,,0.000000000,
1717493142.066645,0.373376966,,,,
1717493142.066683,,,5.671738148,,
1717493142.070727,,0.000000000,,,
1717493142.083817,,,,,0.830055535
1717493142.094883,,,,0.000000000,
1717493142.099649,0.373356998,,,,
1717493142.099732,,,5.610694408,,
1717493142.104743,,0.000000000,,,
1717493142.114684,,,,,0.830055535
1717493142.124794,,,,0.000000000,
1717493142.132869,0.373393387,,,,
1717493142.132916,,,5.423083305,,
1717493142.134703,,0.000000000,,,
1717493142.150840,,,,,0.830055535
1717493142.160767,,,,0.000000000,
1717493142.166444,0.373399675,,,,
1717493142.166482,,,5.023750305,,
1717493142.170739,,0.000000000,,,
1717493142.182796,,,,,0.830055535
1717493142.193845,,,,0.000000000,
1717493142.199216,0.373397797,,,,
1717493142.199244,,,4.490952492,,
1717493142.203841,,0.000000000,,,
1717493142.214745,,,,,0.830055535
1717493142.224782,,,,0.000000000,
1717493142.233003,0.373422742,,,,
1717493142.233037,,,3.842213154,,
1717493142.235723,,0.000000000,,,
1717493142.252798,,,,,0.830055535
1717493142.262857,,,,0.000000000,
1717493142.265750,0.373468488,,,,
1717493142.265782,,,3.062502861,,
1717493142.277738,,0.000000000,,,
1717493142.289790,,,,,0.830055535
1717493142.299288,0.373503447,,,,
1717493142.299334,,,2.194424868,,
1717493142.299778,,,,0.000000000,
1717493142.315799,,0.000000000,,,
1717493142.325833,,,,,0.830055535
1717493142.332796,0.373573065,,,,
1717493142.332828,,,1.263220549,,
1717493142.335763,,,,0.000000000,
1717493142.353851,,0.000000000,,,
1717493142.364796,,,,,0.830055535
1717493142.366083,0.373665929,,,,
1717493142.366096,,,0.320297807,,
1717493142.380837,,,,0.000000000,
1717493142.390830,,0.000000000,,,
1717493142.399863,0.373740911,,,,
1717493142.399925,,,-0.617715180,,
1717493142.401794,,,,,0.830055535
1717493142.417819,,,,0.000000000,
1717493142.427795,,0.000000000,,,
1717493142.432665,0.373802900,,,,
1717493142.432690,,,-1.526085138,,
1717493142.439781,,,,,0.830055535
1717493142.448781,,,,0.000000000,
1717493142.458864,,0.000000000,,,
1717493142.466002,0.373856008,,,,
1717493142.466038,,,-2.405417204,,
1717493142.470793,,,,,0.830055535
1717493142.480783,,,,0.000000000,
1717493142.490824,,0.000000000,,,
1717493142.499358,0.373921067,,,,
1717493142.499382,,,-3.204344034,,
1717493142.500850,,,,,0.830055535
1717493142.515892,,,,0.000000000,
1717493142.525845,,0.000000000,,,
1717493142.532719,0.373971432,,,,
1717493142.532746,,,-3.898503542,,
1717493142.536780,,,,,0.830055535
1717493142.549865,,,,0.000000000,
1717493142.559955,,0.000000000,,,
1717493142.566154,0.374082685,,,,
1717493142.566184,,,-4.436106205,,
1717493142.569811,,,,,0.830055535
1717493142.583960,,,,0.000000000,
1717493142.593936,,0.000000000,,,
1717493142.599191,0.374177456,,,,
1717493142.599219,,,-4.827104568,,
1717493142.605836,,,,,0.830055535
1717493142.617916,,,,0.000000000,
1717493142.627872,,0.000000000,,,
1717493142.632529,0.374220967,,,,
1717493142.632557,,,-5.072180748,,
1717493142.638853,,,,,0.830055535
1717493142.649878,,,,0.000000000,
1717493142.661956,,0.000000000,,,
1717493142.665354,0.374234200,,,,
1717493142.665379,,,-5.129173756,,
1717493142.677877,,,,,0.830055535
1717493142.687872,,,,0.000000000,
1717493142.698960,,0.000000000,,,
1717493142.699016,0.374270499,,,,
1717493142.699032,,,-5.007304668,,
1717493142.714973,,,,,0.830055535
1717493142.723910,,,,0.000000000,
1717493142.732324,0.374301553,,,,
1717493142.732352,,,-4.724826813,,
1717493142.732835,,0.000000000,,,
1717493142.751988,,,,,0.830055535
1717493142.761924,,,,0.000000000,
1717493142.765908,0.374294043,,,,
1717493142.765937,,,-4.265536785,,
1717493142.773854,,0.000000000,,,
1717493142.784948,,,,,0.830055535
1717493142.794973,,,,0.000000000,
1717493142.799262,0.374335766,,,,
1717493142.799291,,,-3.664885521,,
1717493142.804872,,0.000000000,,,
1717493142.815866,,,,,0.830055535
1717493142.825907,,,,0.000000000,
1717493142.834545,0.374343157,,,,
1717493142.834563,,,-2.915030718,,
1717493142.836803,,0.000000000,,,
1717493142.852997,,,,,0.830055535
1717493142.863968,,,,0.000000000,
1717493142.867224,0.374330133,,,,
1717493142.867263,,,-2.093616486,,
1717493142.877909,,0.000000000,,,
1717493142.888899,,,,,0.830055535
1717493142.899050,,,,0.000000000,
1717493142.899080,0.374296635,,,,
1717493142.899089,,,-1.200647235,,
1717493142.912934,,0.000000000,,,
1717493142.922951,,,,,0.830055535
1717493142.932424,0.374283880,,,,
1717493142.932451,,,-0.278798670,,
1717493142.932876,,,,0.000000000,
1717493142.950958,,0.000000000,,,
1717493142.960973,,,,,0.830055535
1717493142.967250,0.374245405,,,,
1717493142.967285,,,0.680497825,,
1717493142.970859,,,,0.000000000,
1717493142.984910,,0.000000000,,,
1717493142.994901,,,,,0.830055535
1717493143.001140,0.374189079,,,,
1717493143.001175,,,1.642900348,,
1717493143.003856,,,,0.000000000,
1717493143.018984,,0.000000000,,,
1717493143.029890,,,,,0.830055535
1717493143.033931,0.374159724,,,,
1717493143.033960,,,2.550316572,,
1717493143.041866,,,,0.000000000,
1717493143.053061,,0.000000000,,,
1717493143.063010,,,,,0.830055535
1717493143.067157,0.374033153,,,,
1717493143.067203,,,3.376895428,,
1717493143.080942,,,,0.000000000,
1717493143.091900,,0.000000000,,,
1717493143.100683,0.373921335,,,,
1717493143.100724,,,4.097945690,,
1717493143.103940,,,,,0.830055535
1717493143.118001,,,,0.000000000,
1717493143.128944,,0.000000000,,,
1717493143.132888,0.373874873,,,,
1717493143.132922,,,4.706139565,,
1717493143.139875,,,,,0.830055535
1717493143.150969,,,,0.000000000,
1717493143.161020,,0.000000000,,,
1717493143.166731,0.373817593,,,,
1717493143.166772,,,5.184193134,,
1717493143.170888,,,,,0.830055535
1717493143.184962,,,,0.000000000,
1717493143.194992,,0.000000000,,,
1717493143.200098,0.373806417,,,,
1717493143.200134,,,5.516008377,,
1717493143.205918,,,,,0.830055535
1717493143.217030,,,,0.000000000,
1717493143.228975,,0.000000000,,,
1717493143.233297,0.373763680,,,,
1717493143.233328,,,5.650353432,,
1717493143.239960,,,,,0.830055535
1717493143.250995,,,,0.000000000,
1717493143.261026,,0.000000000,,,
1717493143.267338,0.373711705,,,,
1717493143.267380,,,5.605250359,,
1717493143.271966,,,,,0.830055535
1717493143.282009,,,,0.000000000,
1717493143.292977,,0.000000000,,,
1717493143.300436,0.373652607,,,,
1717493143.300483,,,5.416251659,,
1717493143.306948,,,,,0.830055535
1717493143.316996,,,,0.000000000,
1717493143.328042,,0.000000000,,,
1717493143.334135,0.373582900,,,,
1717493143.334184,,,5.015447617,,
1717493143.337907,,,,,0.830055535
1717493143.354018,,,,0.000000000,
1717493143.364051,,0.000000000,,,
1717493143.367262,0.373603433,,,,
1717493143.367282,,,4.472826481,,
1717493143.378970,,,,,0.830055535
1717493143.391038,,,,0.000000000,
1717493143.401062,0.373583227,,,,
1717493143.401101,,0.000000000,,,
1717493143.401116,,,3.822922945,,
1717493143.417017,,,,,0.830055535
1717493143.425989,,,,0.000000000,
1717493143.434069,0.373612255,,,,
1717493143.434091,,,3.032886744,,
1717493143.436923,,0.000000000,,,
1717493143.452080,,,,,0.830055535
1717493143.464059,,,,0.000000000,
1717493143.466853,0.373671800,,,,
1717493143.466899,,,2.162635803,,
1717493143.477970,,0.000000000,,,
1717493143.490036,,,,,0.830055535
1717493143.499041,,,,0.000000000,
1717493143.500102,0.373751074,,,,
1717493143.500155,,,1.204358220,,
1717493143.513021,,0.000000000,,,
1717493143.523145,,,,,0.830055535
1717493143.534101,,,,0.000000000,
1717493143.534753,0.373761237,,,,
1717493143.534837,,,0.225280583,,
1717493143.548103,,0.000000000,,,
1717493143.558095,,,,,0.830055535
1717493143.566277,0.373881668,,,,
1717493143.566319,,,-0.731643975,,
1717493143.567965,,,,0.000000000,
1717493143.585165,,0.000000000,,,
1717493143.596124,,,,,0.830055535
1717493143.601990,0.374006093,,,,
1717493143.602051,,,-1.641483307,,
1717493143.606983,,,,0.000000000,
1717493143.618078,,0.000000000,,,
1717493143.629116,,,,,0.830055535
1717493143.632143,0.374120682,,,,
1717493143.632183,,,-2.521878004,,
1717493143.646123,,,,0.000000000,
1717493143.656095,,0.000000000,,,
1717493143.664793,0.374244303,,,,
1717493143.664837,,,-3.313296556,,
1717493143.666014,,,,,0.830055535
1717493143.682130,,,,0.000000000,
1717493143.693112,,0.000000000,,,
1717493143.700944,0.374323457,,,,
1717493143.700988,,,-4.007923126,,
1717493143.704071,,,,,0.830055535
1717493143.720128,,,,0.000000000,
1717493143.731094,,0.000000000,,,
1717493143.732516,0.374407619,,,,
1717493143.732546,,,-4.554481506,,
1717493143.745136,,,,,0.830055535
1717493143.756131,,,,0.000000000,
1717493143.765586,0.374511331,,,,
1717493143.765640,,,-4.919884205,,
1717493143.766124,,0.000000000,,,
1717493143.780142,,,,,0.830055535
1717493143.790132,,,,0.000000000,
1717493143.799196,0.374569684,,,,
1717493143.799234,,0.000000000,,,
1717493143.799269,,,-5.130633354,,
1717493143.815133,,,,,0.830055535
1717493143.825112,,,,0.000000000,
1717493143.832249,0.374667495,,,,
1717493143.832296,,,-5.144159794,,
1717493143.835021,,0.000000000,,,
1717493143.850193,,,,,0.830055535
1717493143.862208,,,,0.000000000,
1717493143.865279,0.374671429,,,,
1717493143.865304,,,-4.979179859,,
1717493143.879173,,0.000000000,,,
1717493143.889143,,,,,0.830055535
1717493143.898589,0.374708951,,,,
1717493143.898633,,,-4.661816120,,
1717493143.901049,,,,0.000000000,
1717493143.916156,,0.000000000,,,
1717493143.927116,,,,,0.830055535
1717493143.934798,0.374677598,,,,
1717493143.934839,,,-4.159410954,,
1717493143.938068,,,,0.000000000,
1717493143.954169,,0.000000000,,,
1717493143.964155,,,,,0.830055535
1717493143.966689,0.374667317,,,,
1717493143.966712,,,-3.532866478,,
1717493143.979167,,,,0.000000000,
1717493143.989193,,0.000000000,,,
1717493144.000141,,,,,0.830055535
1717493144.000555,0.374621600,,,,
1717493144.000589,,,-2.748438835,,
1717493144.017156,,,,0.000000000,
1717493144.029212,,0.000000000,,,
1717493144.033621,0.374599934,,,,
1717493144.033658,,,-1.900742412,,
1717493144.041141,,,,,0.830055535
1717493144.052147,,,,0.000000000,
1717493144.062138,,0.000000000,,,
1717493144.066657,0.374522775,,,,
1717493144.066688,,,-0.998549938,,
1717493144.079173,,,,,0.830055535
1717493144.089203,,,,0.000000000,
1717493144.099179,,0.000000000,,,
1717493144.100574,0.374433577,,,,
1717493144.100618,,,-0.067531995,,
1717493144.113207,,,,,0.830055535
1717493144.123219,,,,0.000000000,
1717493144.133274,0.374329627,,,,
1717493144.133318,,,0.892435610,,
1717493144.134103,,0.000000000,,,
1717493144.151182,,,,,0.830055535
1717493144.162228,,,,0.000000000,
1717493144.165897,0.374246657,,,,
1717493144.165934,,,1.822873354,,
1717493144.173105,,0.000000000,,,
1717493144.183206,,,,,0.830055535
1717493144.195209,,,,0.000000000,
1717493144.198663,0.374179691,,,,
1717493144.198693,,,2.706110239,,
1717493144.209169,,0.000000000,,,
1717493144.220279,,,,,0.830055535
1717493144.230257,,,,0.000000000,
1717493144.233071,0.374151826,,,,
1717493144.233102,,,3.534518242,,
1717493144.245169,,0.000000000,,,
1717493144.255262,,,,,0.830055535
1717493144.266292,,,,0.000000000,
1717493144.266751,0.374059200,,,,
1717493144.266827,,,4.231898785,,
1717493144.280146,,0.000000000,,,
1717493144.290240,,,,,0.830055535
1717493144.300305,0.374021024,,,,
1717493144.300345,,,4.782423496,,
1717493144.301122,,,,0.000000000,
1717493144.318236,,0.000000000,,,
1717493144.329226,,,,,0.830055535
1717493144.332952,0.373969823,,,,
1717493144.332985,,,5.211824417,,
1717493144.341141,,,,0.000000000,
1717493144.352246,,0.000000000,,,
1717493144.362248,,,,,0.830055535
1717493144.366251,0.373946071,,,,
1717493144.366293,,,5.469317913,,
1717493144.373177,,,,0.000000000,
1717493144.383241,,0.000000000,,,
1717493144.393216,,,,,0.830055535
1717493144.399784,0.373964280,,,,
1717493144.399857,,,5.538361073,,
1717493144.403229,,,,0.000000000,
1717493144.418275,,0.000000000,,,
1717493144.429280,,,,,0.830055535
1717493144.431708,0.373988837,,,,
1717493144.431739,,,5.454168797,,
1717493144.447273,,,,0.000000000,
1717493144.457241,,0.000000000,,,
1717493144.465069,0.373971075,,,,
1717493144.465108,,,5.184351444,,
1717493144.467156,,,,,0.830055535
1717493144.487235,,,,0.000000000,
1717493144.497241,,0.000000000,,,
1717493144.498244,0.373990536,,,,
1717493144.498283,,,4.744329453,,
1717493144.511181,,,,,0.830055535
1717493144.522269,,,,0.000000000,
1717493144.531470,0.374031156,,,,
1717493144.531529,,,4.178781033,,
1717493144.533174,,0.000000000,,,
1717493144.549237,,,,,0.830055535
1717493144.561215,,,,0.000000000,
1717493144.565227,0.374103129,,,,
1717493144.565263,,,3.513934612,,
1717493144.571244,,0.000000000,,,
1717493144.581369,,,,,0.830055535
1717493144.592257,,,,0.000000000,
1717493144.598482,0.374148816,,,,
1717493144.598526,,,2.724819422,,
1717493144.602159,,0.000000000,,,
1717493144.617291,,,,,0.830055535
1717493144.627217,,,,0.000000000,
1717493144.631743,0.374224871,,,,
1717493144.631775,,,1.854430795,,
1717493144.637204,,0.000000000,,,
1717493144.647239,,,,,0.830055535
1717493144.658283,,,,0.000000000,
1717493144.665746,0.374285519,,,,
1717493144.665782,,,0.944599986,,
1717493144.669212,,0.000000000,,,
1717493144.685310,,,,,0.830055535
1717493144.695232,,,,0.000000000,
1717493144.699713,0.374347329,,,,
1717493144.699745,,,0.004858901,,
1717493144.705215,,0.000000000,,,
1717493144.716258,,,,,0.830055535
1717493144.727308,,,,0.000000000,
1717493144.734428,0.374342710,,,,
1717493144.734467,,,-0.922473133,,
1717493144.737242,,0.000000000,,,
1717493144.753295,,,,,0.830055535
1717493144.765355,,,,0.000000000,
1717493144.767001,0.374410182,,,,
1717493144.767037,,,-1.812045813,,
1717493144.779210,,0.000000000,,,
1717493144.789329,,,,,0.830055535
1717493144.799797,0.374468952,,,,
1717493144.799844,,,-2.639090061,,
1717493144.800290,,,,0.000000000,
1717493144.816336,,0.000000000,,,
1717493144.827315,,,,,0.830055535
1717493144.833461,0.374500901,,,,
1717493144.833499,,,-3.378506184,,
1717493144.839232,,,,0.000000000,
1717493144.849319,,0.000000000,,,
1717493144.860301,,,,,0.830055535
1717493144.866652,0.374574602,,,,
1717493144.866688,,,-3.986931324,,
1717493144.876291,,,,0.000000000,
1717493144.885372,,0.000000000,,,
1717493144.895293,,,,,0.830055535
1717493144.900063,0.374604344,,,,
1717493144.900109,,,-4.448171139,,
1717493144.905275,,,,0.000000000,
1717493144.916323,,0.000000000,,,
1717493144.928292,,,,,0.830055535
1717493144.933497,0.374585837,,,,
1717493144.933536,,,-4.754299164,,
1717493144.938244,,,,0.000000000,
1717493144.949325,,0.000000000,,,
1717493144.959324,,,,,0.830055535
1717493144.966829,0.374578476,,,,
1717493144.966866,,,-4.889063358,,
1717493144.971265,,,,0.000000000,
1717493144.984361,,0.000000000,,,
1717493144.994319,,,,,0.830055535
1717493145.000188,0.374542356,,,,
1717493145.000221,,,-4.867669582,,
1717493145.004270,,,,0.000000000,
1717493145.021339,,0.000000000,,,
1717493145.031380,,,,,0.830055535
1717493145.033520,0.374519944,,,,
1717493145.033552,,,-4.673222065,,
1717493145.047284,,,,0.000000000,
1717493145.057364,,0.000000000,,,
1717493145.066777,0.374490201,,,,
1717493145.066818,,,-4.334638119,,
1717493145.067403,,,,,0.830055535
1717493145.085429,,,,0.000000000,
1717493145.095317,,0.000000000,,,
1717493145.100458,0.374462575,,,,
1717493145.100495,,,-3.834460020,,
1717493145.105358,,,,,0.830055535
1717493145.118387,,,,0.000000000,
1717493145.129391,,0.000000000,,,
1717493145.134264,0.374387652,,,,
1717493145.134312,,,-3.216756582,,
1717493145.141289,,,,,0.830055535
1717493145.152384,,,,0.000000000,
1717493145.162326,,0.000000000,,,
1717493145.166853,0.374332309,,,,
1717493145.166896,,,-2.472672224,,
1717493145.173301,,,,,0.830055535
1717493145.182381,,,,0.000000000,
1717493145.192335,,0.000000000,,,
1717493145.199996,0.374246299,,,,
1717493145.200031,,,-1.645816803,,
1717493145.202305,,,,,0.830055535
1717493145.218360,,,,0.000000000,
1717493145.228336,,0.000000000,,,
1717493145.233822,0.374184102,,,,
1717493145.233863,,,-0.771140754,,
1717493145.238316,,,,,0.830055535
1717493145.248369,,,,0.000000000,
1717493145.259415,,0.000000000,,,
1717493145.266903,0.374120563,,,,
1717493145.266948,,,0.134558693,,
1717493145.269316,,,,,0.830055535
1717493145.284424,,,,0.000000000,
1717493145.294358,,0.000000000,,,
1717493145.299688,0.374010921,,,,
1717493145.299747,,,1.045085549,,
1717493145.304334,,,,,0.830055535
1717493145.315371,,,,0.000000000,
1717493145.325405,,0.000000000,,,
1717493145.333524,0.373917282,,,,
1717493145.333563,,,1.909859180,,
1717493145.335326,,,,,0.830055535
1717493145.357442,,,,0.000000000,
1717493145.366622,0.373807698,,,,
1717493145.366656,,,2.728197813,,
1717493145.367342,,0.000000000,,,
1717493145.383409,,,,,0.830055535
1717493145.393378,,,,0.000000000,
1717493145.400477,0.373678803,,,,
1717493145.400532,,,3.475543737,,
1717493145.404324,,0.000000000,,,
1717493145.419429,,,,,0.830055535
1717493145.429375,,,,0.000000000,
1717493145.434006,0.373642623,,,,
1717493145.434039,,,4.100996017,,
1717493145.439349,,0.000000000,,,
1717493145.450396,,,,,0.830055535
1717493145.462395,,,,0.000000000,
1717493145.466141,0.373599321,,,,
1717493145.466177,,,4.629806519,,
1717493145.478347,,0.000000000,,,
1717493145.488458,,,,,0.830055535
1717493145.498404,,,,0.000000000,
1717493145.499494,0.373566240,,,,
1717493145.499570,,,5.027894497,,
1717493145.512382,,0.000000000,,,
1717493145.522427,,,,,0.830055535
1717493145.533171,0.373542815,,,,
1717493145.533205,,,5.243077278,,
1717493145.533384,,,,0.000000000,
1717493145.547397,,0.000000000,,,
1717493145.557462,,,,,0.830055535
1717493145.566458,,,,0.000000000,
1717493145.566894,0.373510361,,,,
1717493145.566989,,,5.295192719,,
1717493145.580436,,0.000000000,,,
1717493145.590508,,,,,0.830055535
1717493145.600497,0.373484999,,,,
1717493145.600538,,,5.208943844,,
1717493145.601353,,,,0.000000000,
1717493145.620493,,0.000000000,,,
1717493145.632423,,,,,0.830055535
1717493145.633867,0.373486847,,,,
1717493145.633900,,,4.952383995,,
1717493145.649465,,,,0.000000000,
1717493145.659408,,0.000000000,,,
1717493145.666066,0.373468816,,,,
1717493145.666103,,,4.540097237,,
1717493145.670402,,,,,0.830055535
1717493145.692497,,,,0.000000000,
1717493145.700542,0.373493075,,,,
1717493145.700582,,,3.999845266,,
1717493145.704463,,0.000000000,,,
1717493145.718480,,,,,0.830055535
1717493145.728443,,,,0.000000000,
1717493145.729763,0.373499006,,,,
1717493145.729789,,,3.358079672,,
1717493145.742421,,0.000000000,,,
1717493145.753473,,,,,0.830055535
1717493145.763353,0.373501837,,,,
1717493145.763386,,,2.615040064,,
1717493145.764387,,,,0.000000000,
1717493145.781472,,0.000000000,,,
1717493145.792513,,,,,0.830055535
1717493145.795799,0.373591661,,,,
1717493145.795825,,,1.797599077,,
1717493145.810451,,,,0.000000000,
1717493145.819453,,0.000000000,,,
1717493145.829571,,,,,0.830055535
1717493145.829612,0.373618454,,,,
1717493145.829623,,,0.948143125,,
1717493145.845491,,,,0.000000000,
1717493145.856469,,0.000000000,,,
1717493145.865170,0.373693347,,,,
1717493145.865195,,,0.067171909,,
1717493145.867450,,,,,0.830055535
1717493145.891549,,,,0.000000000,
1717493145.900728,0.373783559,,,,
1717493145.900766,,,-0.820383787,,
1717493145.902497,,0.000000000,,,
1717493145.917580,,,,,0.830055535
1717493145.928481,,,,0.000000000,
1717493145.933709,0.373854458,,,,
1717493145.933770,,,-1.663663387,,
1717493145.938425,,0.000000000,,,
1717493145.949532,,,,,0.830055535
1717493145.959521,,,,0.000000000,
1717493145.966387,0.373877972,,,,
1717493145.966413,,,-2.471478462,,
1717493145.969427,,0.000000000,,,
1717493145.985507,,,,,0.830055535
1717493145.995491,,,,0.000000000,
1717493145.999948,0.373938560,,,,
1717493145.999974,,,-3.175905228,,
1717493146.005472,,0.000000000,,,
1717493146.016531,,,,,0.830055535
1717493146.027486,,,,0.000000000,
1717493146.032943,0.373962373,,,,
1717493146.033071,,,-3.760512114,,
1717493146.037463,,0.000000000,,,
1717493146.051575,,,,,0.830055535
1717493146.061501,,,,0.000000000,
1717493146.066308,0.373984665,,,,
1717493146.066346,,,-4.217304707,,
1717493146.076473,,0.000000000,,,
1717493146.087546,,,,,0.830055535
1717493146.097555,,,,0.000000000,
1717493146.098086,0.374036014,,,,
1717493146.098114,,,-4.537655354,,
1717493146.112510,,0.000000000,,,
1717493146.123524,,,,,0.830055535
1717493146.132084,0.374077439,,,,
1717493146.132112,,,-4.697607040,,
1717493146.134520,,,,0.000000000,
1717493146.151557,,0.000000000,,,
1717493146.161519,,,,,0.830055535
1717493146.165119,0.374095201,,,,
1717493146.165158,,,-4.711916924,,
1717493146.170483,,,,0.000000000,
1717493146.181482,,0.000000000,,,
1717493146.191530,,,,,0.830055535
1717493146.199056,0.374079257,,,,
1717493146.199077,,,-4.582398415,,
1717493146.204074,,,,0.000000000,
1717493146.216649,,0.000000000,,,
1717493146.226641,,,,,0.830055535
1717493146.234683,0.374099612,,,,
1717493146.234724,,,-4.309191704,,
1717493146.239481,,,,0.000000000,
1717493146.249574,,0.000000000,,,
1717493146.260594,,,,,0.830055535
1717493146.263453,0.374097586,,,,
1717493146.263483,,,-3.901478291,,
1717493146.278540,,,,0.000000000,
1717493146.288554,,0.000000000,,,
1717493146.296250,0.374059230,,,,
1717493146.296288,,,-3.368435621,,
1717493146.298530,,,,,0.830055535
1717493146.314607,,,,0.000000000,
1717493146.326566,,0.000000000,,,
1717493146.328847,0.374097109,,,,
1717493146.328875,,,-2.726999760,,
1717493146.341599,,,,,0.830055535
1717493146.353581,,,,0.000000000,
1717493146.364579,,0.000000000,,,
1717493146.366107,0.374096572,,,,
1717493146.366138,,,-1.985852599,,
1717493146.379494,,,,,0.830055535
1717493146.391638,,,,0.000000000,
1717493146.398915,0.374036580,,,,
1717493146.398953,,,-1.204387784,,
1717493146.401543,,0.000000000,,,
1717493146.421597,,,,,0.830055535
1717493146.432015,0.374018312,,,,
1717493146.432059,,,-0.356947929,,
1717493146.432666,,,,0.000000000,
1717493146.448618,,0.000000000,,,
1717493146.461603,,,,,0.830055535
1717493146.465823,0.373997390,,,,
1717493146.465857,,,0.497899681,,
1717493146.480581,,,,0.000000000,
1717493146.492658,,0.000000000,,,
1717493146.498993,0.373915285,,,,
1717493146.499030,,,1.300924301,,
1717493146.504560,,,,,0.830055535
1717493146.519644,,,,0.000000000,
1717493146.531612,,0.000000000,,,
1717493146.531978,0.373866439,,,,
1717493146.532028,,,2.079092741,,
1717493146.546557,,,,,0.830055535
1717493146.555629,,,,0.000000000,
1717493146.565616,,0.000000000,,,
1717493146.566529,0.373833984,,,,
1717493146.566565,,,2.790888071,,
1717493146.579566,,,,,0.830055535
1717493146.591655,,,,0.000000000,
1717493146.599371,0.373799980,,,,
1717493146.599404,,,3.410982370,,
1717493146.601623,,0.000000000,,,
1717493146.616656,,,,,0.830055535
1717493146.627626,,,,0.000000000,
1717493146.632244,0.373773128,,,,
1717493146.632276,,,3.931487322,,
1717493146.638568,,0.000000000,,,
1717493146.649663,,,,,0.830055535
1717493146.660630,,,,0.000000000,
1717493146.667155,0.373790771,,,,
1717493146.667186,,,4.344070435,,
1717493146.670578,,0.000000000,,,
1717493146.688634,,,,,0.830055535
1717493146.695487,0.373805195,,,,
1717493146.695518,,,4.598155499,,
1717493146.700629,,,,0.000000000,
1717493146.712602,,0.000000000,,,
1717493146.723659,,,,,0.830055535
1717493146.728926,0.373811632,,,,
1717493146.728987,,,4.693690777,,
1717493146.734611,,,,0.000000000,
1717493146.746613,,0.000000000,,,
1717493146.757635,,,,,0.830055535
1717493146.767000,0.373859465,,,,
1717493146.767043,,,4.665149689,,
1717493146.767614,,,,0.000000000,
1717493146.783672,,0.000000000,,,
1717493146.794630,,,,,0.830055535
1717493146.795074,0.373883337,,,,
1717493146.795100,,,4.512219906,,
1717493146.811682,,,,0.000000000,
1717493146.820673,,0.000000000,,,
1717493146.828338,0.373882473,,,,
1717493146.828378,,,4.175090790,,
1717493146.831601,,,,,0.830055535
1717493146.845662,,,,0.000000000,
1717493146.855656,,0.000000000,,,
1717493146.866316,0.373897433,,,,
1717493146.866354,,,3.688291073,,
1717493146.866664,,,,,0.830055535
1717493146.886743,,,,0.000000000,
1717493146.896791,,0.000000000,,,
1717493146.900112,0.373969257,,,,
1717493146.900263,,,3.136862516,,
1717493146.914634,,,,,0.830055535
1717493146.924782,,,,0.000000000,
1717493146.934042,0.373991847,,,,
1717493146.934087,,,2.427020788,,
1717493146.934644,,0.000000000,,,
1717493146.952720,,,,,0.830055535
1717493146.962816,,,,0.000000000,
1717493146.966224,0.374049962,,,,
